lng,lat,name
138.60,-34.93,"Adelaide"
153.02,-27.47,"Brisbane"
149.13,-35.30,"Canberra"
130.83,-12.45,"Darwin"
147.32,-42.88,"Hobart"
144.97,-37.82,"Melbourne"
115.85,-31.95,"Perth"
151.20,-33.87,"Sydney"
